City,Cloudiness,Country,Date,Humidity,Lat,Lng,Max Temp,Wind Speed
Panzhihua,0,CN,1587079437,30,26.59,101.71,68.59,0.47
Te Anau,85,NZ,1587079437,71,-45.42,167.72,55.99,4.54
Ranong,99,TH,1587079437,79,9.97,98.63,80.24,3.09
Ibirama,0,BR,1587079438,82,-27.06,-49.52,60.01,1.7
Albany,40,US,1587079438,30,42.6,-73.97,41,17.22
Tuktoyaktuk,90,CA,1587079438,79,69.45,-133.04,19.4,16.11
Zhigansk,16,RU,1587079438,88,66.77,123.37,-3.41,17.83
Chui,4,UY,1587079438,87,-33.7,-53.46,62.49,8.14
Cape Town,86,ZA,1587079202,93,-33.93,18.42,59,4.7
Bengkulu,100,ID,1587079438,89,-3.8,102.27,76.08,5.3
Robertsport,55,LR,1587079438,86,6.75,-11.37,81.09,9.6
Kapaa,20,US,1587079439,65,22.08,-159.32,82.4,12.75
Esperance,75,AU,1587079439,87,-33.87,121.9,53.6,8.05
Rikitea,24,PF,1587079439,75,-23.12,-134.97,76.37,12.77
Busselton,13,AU,1587079417,61,-33.65,115.33,53.01,8.05
Arroyo de la Encomienda,37,ES,1587079439,93,41.61,-4.8,51.01,6.93
Jamestown,90,US,1587079416,47,42.1,-79.24,37.4,19.46
Chokurdakh,87,RU,1587079439,91,70.63,147.92,-4.65,9.93
Turtas,100,RU,1587079440,82,58.94,69.13,40.57,8.63
Chapais,90,CA,1587079440,58,49.78,-74.85,26.6,12.75
Castro,0,BR,1587079440,38,-24.79,-50.01,53.17,1.72
Airai,6,TL,1587079440,58,-8.93,125.41,69.06,3.22
Fairbanks,90,US,1587079440,80,64.84,-147.72,44.6,11.41
Abu Samrah,97,SY,1587079440,57,35.3,37.18,60.53,2.42
Punta Arenas,75,CL,1587079419,87,-53.15,-70.92,50,9.17
Cidreira,4,BR,1587079441,78,-30.18,-50.21,65.86,11.36
Beringovskiy,97,RU,1587079441,96,63.05,179.32,24.93,18.07
Saint-Philippe,19,RE,1587079441,64,-21.36,55.77,75.2,17.22
Sarakhs,0,IR,1587079441,87,36.54,61.16,51.8,2.24
Madaoua,11,NE,1587079441,12,14.07,5.96,83.77,10.09
Bindura,13,ZW,1587079441,65,-17.3,31.33,63.57,2.59
Karratha,90,AU,1587079442,62,-20.74,116.85,84.38,12.57
Khatanga,0,RU,1587079442,90,71.97,102.5,4.93,12.06
Lompoc,1,US,1587079412,72,34.64,-120.46,72,14.99
Port Blair,95,IN,1587079267,74,11.67,92.75,82.72,3.8
Barra do Garças,100,BR,1587079442,83,-15.89,-52.26,72.19,2.51
Geraldton,86,AU,1587079442,77,-28.77,114.6,62.6,4.7
Torbay,85,CA,1587079442,86,47.67,-52.73,33.01,7
Vaini,75,TO,1587079442,74,-21.2,-175.2,80.6,4.7
Klyuchi,2,RU,1587079442,65,52.27,79.17,45.61,1.23
Norman Wells,75,CA,1587079443,87,65.28,-126.83,42.8,9.17
Hobart,20,AU,1587079422,53,-42.88,147.33,52,21.92
Rørvik,100,NO,1587079443,75,64.86,11.24,38.89,24.32
Ushuaia,98,AR,1587079404,54,-54.8,-68.3,57.2,20.8
Leningradskiy,100,RU,1587079443,95,69.38,178.42,16.18,8.68
Mataura,100,NZ,1587079443,95,-46.19,168.86,46,7
Floriano,58,BR,1587079443,84,-6.77,-43.02,76.59,2.95
Hong Kong,20,HK,1587079444,83,22.29,114.16,73.99,11.41
São João da Barra,59,BR,1587079444,91,-21.64,-41.05,74.48,9.42
Bluff,100,NZ,1587079444,95,-46.6,168.33,46,7
Pacific Grove,90,US,1587079444,76,36.62,-121.92,66,12.75
Camaná,30,PE,1587079444,76,-16.62,-72.71,72.09,7.43
Kalāleh,2,IR,1587079444,93,37.38,55.49,55.4,9.17
Sumbuya,35,SL,1587079444,84,7.65,-11.96,79.03,2.17
Darhan,44,MN,1587079444,38,49.49,105.92,45.77,0.29
Katsuura,75,JP,1587079445,61,35.13,140.3,55,8.05
Port Alfred,0,ZA,1587079414,85,-33.59,26.89,59,6.71
Narasannapeta,28,IN,1587079445,85,18.42,84.05,79.61,8.86
Bethel,1,US,1587079445,24,41.37,-73.41,46.4,8.05
Champerico,33,GT,1587079445,60,14.3,-91.92,87.1,6.22
Carnarvon,90,AU,1587079445,73,-24.87,113.63,75.2,9.17
Whitianga,76,NZ,1587079445,80,-36.83,175.7,71.01,7
Batagay-Alyta,100,RU,1587079445,81,67.8,130.41,-2.09,16.08
Ilulissat,88,GL,1587079446,87,69.22,-51.1,32,18.34
Clyde River,40,CA,1587079446,84,70.47,-68.59,5,14.99
Saint-Joseph,19,RE,1587079446,64,-21.37,55.62,75.2,17.22
Hermanus,92,ZA,1587079420,94,-34.42,19.23,60.01,2.26
Ostrovnoy,100,RU,1587079447,93,68.05,39.51,33.46,20.31
Meulaboh,100,ID,1587079447,85,4.14,96.13,77.81,2.15
Yulara,13,AU,1587079447,52,-25.24,130.99,68,8.05
Yellowknife,90,CA,1587079363,92,62.46,-114.35,37.99,11.41
Saint Paul Harbor,1,US,1587079206,75,57.79,-152.41,46.4,6.93
Jumla,85,NP,1587079447,25,29.27,82.18,48.13,3.56
Fortuna,1,US,1587079447,87,40.6,-124.16,66.99,13.87
Sura,100,RU,1587079448,88,53.89,45.74,39.78,12.08
Tougue,52,GN,1587079448,36,11.47,-11.6,80.19,2.48
Atuona,29,PF,1587079415,72,-9.8,-139.03,82.76,12.1
Mar del Plata,0,AR,1587079157,87,-38,-57.56,62.01,3.36
Pevek,97,RU,1587079448,94,69.7,170.31,15.33,3.11
Arona,20,ES,1587079448,72,28.1,-16.68,68,3.36
Altamira,86,BR,1587079448,92,-3.2,-52.21,73.85,0.98
Khorixas,0,NA,1587079448,29,-20.37,14.97,66.9,1.43
Ozernovskiy,100,RU,1587079449,95,51.5,156.52,29.86,9.75
Bilibino,70,RU,1587079449,84,68.05,166.44,12.47,2.51
Naze,75,JP,1587079449,64,28.37,129.48,69.8,9.17
Saldanha,83,ZA,1587079449,87,-33.01,17.94,59,2.24
Bredasdorp,100,ZA,1587079449,72,-34.53,20.04,62.6,1.12
Isangel,75,VU,1587079449,66,-19.55,169.27,84.2,9.17
Thompson,75,CA,1587079324,50,55.74,-97.86,28.4,9.17
Koga,100,JP,1587079449,67,33.73,130.47,59,14.99
Kiryat Gat,40,IL,1587079320,77,31.61,34.76,62.6,5.82
Gorom-Gorom,40,BF,1587079450,10,14.44,-0.24,88.3,11.01
Leh,93,IN,1587079450,20,34.17,77.58,31.59,2.77
Liwonde,17,MW,1587079450,71,-15.05,35.2,69.35,2.26
Salinópolis,94,BR,1587079450,78,-0.61,-47.36,81.18,4.85
Kaeo,98,NZ,1587079450,81,-35.1,173.78,66.74,12.26
Ochamchira,43,GE,1587079450,73,42.71,41.47,45.55,3.53
Hilo,90,US,1587079335,57,19.73,-155.09,78.8,11.99
Coahuayana Viejo,5,MX,1587079451,29,18.73,-103.68,87.8,5.82
Yārāda,20,IN,1587079451,94,17.65,83.27,80.6,8.05
Beloha,5,MG,1587079451,64,-25.17,45.05,75.07,6.69
Muroto-misakicho,75,JP,1587079451,67,33.28,134.15,57.2,4.7
Tamandaré,97,BR,1587079451,81,-8.76,-35.1,81.32,12.12
Dongkan,20,CN,1587079451,69,34,119.83,61.32,6.58
Rena,10,NO,1587079451,75,61.13,11.36,25,1.01
Kalmar,20,SE,1587079452,48,56.66,16.36,44.01,6.93
Gijón,20,ES,1587079452,81,43.54,-5.66,57,2.24
Tessalit,25,ML,1587079452,17,20.2,1.01,82.2,10.13
Cherskiy,50,RU,1587079452,92,68.75,161.3,9.72,5.48
Sarankhola,28,BD,1587079452,82,22.31,89.79,78.73,8.23
Giohar,74,SO,1587079452,75,2.78,45.5,81.52,8.52
Carbonear,83,CA,1587079453,61,47.73,-53.21,33.01,4
Hof,1,DE,1587079453,75,50.32,11.92,52,4.41
Guerrero Negro,100,MX,1587079453,35,27.98,-114.06,72,14.79
Corn Island,1,NI,1587079453,75,12.17,-83.04,81.81,15.21
Alta,100,NO,1587079453,69,69.97,23.27,35.6,16.11
Tasiilaq,100,GL,1587079453,92,65.61,-37.64,30.2,28.86
Bambous Virieux,40,MU,1587079453,73,-20.34,57.76,77,11.41
Varhaug,85,NO,1587079454,80,58.61,5.65,39.2,11.41
Port Elizabeth,0,ZA,1587079454,82,-33.92,25.57,55.4,4.7
Puerto Ayora,75,EC,1587079431,83,-0.74,-90.35,82.4,12.75
Klaksvík,51,FO,1587079454,86,62.23,-6.59,41,10.54
Matagami,75,CA,1587079454,49,49.75,-77.63,26.6,12.75
Butaritari,99,KI,1587079454,75,3.07,172.79,83.98,13.87
Sola,96,VU,1587079454,77,-13.88,167.55,82.63,15.9
Arraial do Cabo,75,BR,1587079455,100,-22.97,-42.03,75.2,2.24
Roald,91,NO,1587079455,60,62.58,6.13,39.2,6.93
Kodinsk,26,RU,1587079455,76,58.69,99.18,37.89,0.98
Antofagasta,25,CL,1587079384,82,-23.65,-70.4,64.4,8.05
Great Bend,75,US,1587079426,70,38.36,-98.76,48.2,29.97
Kafr Sawm,57,JO,1587079455,75,32.68,35.8,55.63,6.35
Liwale,98,TZ,1587079455,85,-9.77,37.93,68.58,3.8
Paso de Carrasco,40,UY,1587079455,87,-34.86,-56.05,60.01,4.7
Mercedes,0,AR,1587079407,92,-34.65,-59.43,60.01,4.85
Murray Bridge,27,AU,1587079456,80,-35.12,139.27,61,11.21
Mandera,96,KE,1587079456,17,3.94,41.87,79,13.71
Westport,1,US,1587079332,22,41.14,-73.36,46.99,16.11
Mana,90,GF,1587079457,86,5.66,-53.78,77.79,7.31
Lagoa,7,PT,1587079457,81,39.05,-27.98,59.43,13.82
Necochea,18,AR,1587079443,93,-38.55,-58.74,55,1.01
Ballina,15,AU,1587079370,60,-28.87,153.57,78.01,6.93
Sergeevka,100,KZ,1587079457,52,53.88,67.42,47.03,14.27
Dudinka,92,RU,1587079457,73,69.41,86.18,21.2,15.66
Zhezkazgan,0,KZ,1587079457,60,47.8,67.71,39.2,6.71
Rudnichnyy,86,RU,1587079457,90,59.62,52.47,32.14,6.93
Kambove,94,CD,1587079458,64,-10.88,26.6,63.37,2.91
Iqaluit,75,CA,1587079458,78,63.75,-68.51,12,19.46
Petropavlovsk-Kamchatskiy,75,RU,1587079458,90,53.05,158.65,39.2,4.47
Yar-Sale,99,RU,1587079458,98,66.83,70.83,25.68,15.14
San Vicente,0,AR,1587079458,58,-26.62,-54.13,52.34,3.18
Flin Flon,20,CA,1587079458,34,54.77,-101.86,37.4,11.41
Ayagoz,35,KZ,1587079458,57,47.97,80.44,38.46,12.28
Celestún,77,MX,1587079458,76,20.87,-90.4,81.39,18.7
Baicheng,100,CN,1587079458,36,45.62,122.82,54.55,10
Souillac,40,MU,1587079459,73,-20.52,57.52,77,11.41
Dunhua,100,CN,1587079459,59,43.37,128.24,44.85,7.7
Broken Hill,91,AU,1587079459,66,-31.95,141.43,53.6,8.05
Camacha,40,PT,1587079459,82,33.08,-16.33,60.8,12.75
Karasjok,100,NO,1587079459,86,69.47,25.51,33.8,27.51
Port Moresby,40,PG,1587079459,78,-9.44,147.18,82.4,4.7
Kumul,95,CN,1587079459,22,42.8,93.45,63.54,9.64
Tura,79,IN,1587079459,67,25.52,90.22,67.12,1.34
Richards Bay,13,ZA,1587079460,79,-28.78,32.04,68.99,5.35
Los Llanos de Aridane,75,ES,1587079460,72,28.66,-17.92,68,6.93
San Cristobal,40,VE,1587079460,48,7.77,-72.22,87.8,10.29
Āsosa,31,ET,1587079460,13,10.07,34.53,71.04,2.98
Qaanaaq,100,GL,1587079460,83,77.48,-69.36,16.02,2.13
Hūn,25,LY,1587079460,41,29.13,15.95,69.22,10.67
San Quintín,0,MX,1587079460,55,30.48,-115.95,66.36,10.6
Nosy Varika,4,MG,1587079460,79,-20.58,48.53,73.4,1.45
Alta Floresta,86,BR,1587079312,89,-9.88,-56.09,73,2.89
San Patricio,5,MX,1587079461,73,19.22,-104.7,77,11.41
Lebu,10,CL,1587079461,87,-37.62,-73.65,56.3,8.7
Narsaq,100,GL,1587079462,91,60.92,-46.05,32,1.12
Calama,13,CL,1587079462,20,-22.47,-68.93,62.6,12.75
Longyearbyen,75,SJ,1587079462,74,78.22,15.64,30.2,6.93
Malko Tarnovo,0,BG,1587079462,75,41.98,27.53,46.99,10.29
Safi,96,MA,1587079406,86,32.3,-9.24,62.8,4.94
Yima,28,CN,1587079463,27,34.74,111.88,59.59,3.67
Yerbogachën,57,RU,1587079463,89,61.28,108.01,24.08,10.96
Shihezi,96,CN,1587079463,71,44.3,86.03,49.93,1.95
Morondava,0,MG,1587079463,72,-20.28,44.28,77.23,6.6
Severo-Kuril'sk,96,RU,1587079463,95,50.68,156.12,31.28,13.29
Maple Creek,59,CA,1587079463,42,49.92,-109.48,43.34,9.13
Udachny,64,RU,1587079463,77,66.42,112.4,-0.4,6.71
Rauma,12,FI,1587079452,60,61.13,21.51,39.2,17.22
Bosaso,10,SO,1587079464,72,11.28,49.18,83.19,3.2
Bogorodsk,90,RU,1587079464,93,56.1,43.52,39,4.47
Kiunga,96,PG,1587079464,90,-6.12,141.29,77.49,0.58
Tiksi,100,RU,1587079464,91,71.69,128.87,-4.56,7.18
Moroni,100,KM,1587079464,72,-11.7,43.26,82.94,5.82
San Jerónimo,78,PE,1587079464,28,-11.95,-75.28,51.12,3.02
Hualmay,16,PE,1587079464,74,-11.1,-77.61,72.34,6.51
Zhenlai,100,CN,1587079465,36,45.85,123.3,54.3,9.01
Hamilton,1,US,1587079465,34,39.18,-84.53,50,11.41
Nikolskoye,75,RU,1587079465,90,59.7,30.79,37.4,11.18
Hamadan,63,IR,1587079403,35,34.8,48.51,46.09,1.68
Alyangula,25,AU,1587079465,100,-13.85,136.42,75.2,5.08
Avarua,92,CK,1587079465,65,-21.21,-159.78,80.6,8.05
Las Palmas,21,ES,1587079465,72,28.42,-14.01,68,5.82
Barrow,90,US,1587079218,78,71.29,-156.79,15.8,11.41
Hay River,75,CA,1587079465,48,60.82,-115.8,44.6,8.05
Qūchān,0,IR,1587079465,39,37.11,58.51,46.76,0.96
Itarema,42,BR,1587079466,87,-2.92,-39.92,78.35,6.78
Riviere-au-Renard,20,CA,1587079466,33,49,-64.4,30.2,13.87
Amga,30,RU,1587079466,82,60.9,131.96,12.25,7.45
Makakilo City,20,US,1587079450,51,21.35,-158.09,84.2,9.17
Ancud,90,CL,1587079466,100,-41.87,-73.82,59,17.22
Ribeira Grande,31,PT,1587079466,76,38.52,-28.7,58.57,10.67
Tilichiki,2,RU,1587079466,93,60.47,166.1,17.64,9.15
Karpathos,0,GR,1587079467,72,35.51,27.21,59,26.4
Ponta do Sol,20,PT,1587079467,67,32.67,-17.1,60.8,3.36
Laguna,1,US,1587079467,29,38.42,-121.42,82,4.7
Rawson,84,AR,1587079246,38,-43.3,-65.1,74.89,11.36
Bőny,97,HU,1587079467,66,47.65,17.87,51.8,1.12
Rock Sound,65,BS,1587079224,82,24.9,-76.2,78.66,4.56
Matara,37,LK,1587079468,85,5.95,80.54,77.67,2.51
Hithadhoo,68,MV,1587079266,70,-0.6,73.08,84.54,6.69
Muzhi,100,RU,1587079468,96,65.37,64.67,34.84,15.68
Puri,75,IN,1587079468,94,19.8,85.85,80.6,12.75
Katiola,4,CI,1587079468,58,8.13,-5.1,80.71,4.36
Prince Rupert,90,CA,1587079468,100,54.32,-130.32,44.6,5.82
Nampula,20,MZ,1587079469,94,-15.12,39.27,73.4,5.82
Severnyy,32,RU,1587079469,76,50.68,36.55,44.6,11.18
Goldsboro,1,US,1587079469,24,35.38,-77.99,66.2,6.93
Sebina,18,BW,1587079469,32,-20.87,27.25,68.07,0.54
Xiuyan,99,CN,1587079469,83,40.29,123.27,50.49,9.28
Sonqor,84,IR,1587079469,70,34.78,47.6,46.4,4.7
Shelburne,20,CA,1587079469,40,44.08,-80.2,37,13.87
Krasnozerskoye,26,RU,1587079470,78,53.98,79.24,41.27,4.72
New Norfolk,20,AU,1587079422,53,-42.78,147.06,52,21.92
Zeerust,0,ZA,1587079470,71,-25.54,26.08,50,6.93
Coquimbo,15,CL,1587079470,82,-29.95,-71.34,60.8,5.82
Mount Gambier,40,AU,1587079470,93,-37.83,140.77,55.4,13.87
George,83,ZA,1587079470,93,-33.96,22.46,55.4,3.36
Strezhevoy,74,RU,1587079470,95,60.73,77.59,32,4.47
Jiangkou,0,CN,1587079470,100,25.49,119.2,57.2,6.78
Ondjiva,2,AO,1587079471,41,-17.07,15.73,70.47,5.55
George Town,20,MY,1587079308,88,5.41,100.34,82.4,3.51
Labytnangi,100,RU,1587079471,98,66.66,66.42,29.19,13.44
Kikwit,100,CD,1587079471,78,-5.04,18.82,74.28,2.3
Najrān,2,SA,1587079471,60,17.49,44.13,73.4,4.7
Leer,12,SS,1587079471,12,8.3,30.14,83.84,4.07
Tres Arroyos,19,AR,1587079471,52,-38.37,-60.28,58.75,8.34
Lahaina,40,US,1587079471,51,20.88,-156.68,84.2,19.46
Bernardino de Campos,0,BR,1587079471,60,-23.01,-49.47,56.43,2.44
Saskylakh,0,RU,1587079472,90,71.92,114.08,-5.15,3.02
Ahipara,100,NZ,1587079384,85,-35.17,173.17,66.29,18.25
Laas,10,IT,1587079472,39,46.62,10.7,45,2.24
Eureka,1,US,1587079472,76,40.8,-124.16,66.99,4.7
Upernavik,100,GL,1587079472,89,72.79,-56.15,24.69,9.66
Berlevåg,97,NO,1587079472,83,70.86,29.09,36.37,17.07
St. George's,20,GD,1587079218,74,12.06,-61.75,82.4,17.22
Vila,40,PT,1587079472,93,42.03,-8.16,59,5.82
Shubarshi,100,KZ,1587079472,79,48.59,57.19,41.76,8.86
Teguise,20,ES,1587079473,72,29.06,-13.56,68,1.12
La Ronge,75,CA,1587079473,44,55.1,-105.28,39.2,11.41
Fukuechō,75,JP,1587079473,88,32.69,128.84,62.6,14.99
Mehamn,100,NO,1587079473,92,71.04,27.85,35.31,17.72
Nome,90,US,1587079473,100,64.5,-165.41,34,13.87
Husavik,20,IS,1587079473,65,66.04,-17.34,41,24.16
Umluj,25,SA,1587079473,38,25.02,37.27,75.56,3.4
Babanka,82,UA,1587079474,68,48.71,30.45,49.08,8.19
Tumpat,20,MY,1587079474,78,6.2,102.17,82.4,3.36
Rincon,20,US,1587079474,28,32.3,-81.24,71.6,6.93
Haines Junction,100,CA,1587079450,66,60.75,-137.51,43.09,2.01
Olinda,75,BR,1587079474,94,-8.01,-34.86,78.8,3.36
Maniitsoq,100,GL,1587079474,96,65.42,-52.9,27.95,21.52
Codrington,69,AU,1587079474,66,-38.27,141.97,59.74,19.66
Guider,3,CM,1587079474,12,9.93,13.95,83.77,8.34
Luziânia,75,BR,1587079474,94,-16.25,-47.95,69.8,6.93
Concarneau,89,FR,1587079475,76,47.88,-3.92,57,5.82
Jutaí,68,BR,1587079475,93,-5.18,-68.9,74.62,2.68
Bonnyville,75,CA,1587079475,45,54.27,-110.73,44.6,8.05
Port-Gentil,40,GA,1587079475,100,-0.72,8.78,80.6,2.24
Ouadda,63,CF,1587079475,17,8.08,22.4,67.6,2.33
Delījān,74,IR,1587079475,30,33.99,50.68,56.17,5.3
Rudnogorsk,100,RU,1587079475,73,57.26,103.75,37.58,6.44
Yumen,100,CN,1587079451,22,40.28,97.2,50,16.89
Puerto del Rosario,19,ES,1587079344,72,28.5,-13.86,68,5.82
Mpwapwa,100,TZ,1587079476,69,-6.35,36.48,67.3,4.05
Lavrentiya,100,RU,1587079476,97,65.58,-171,30.76,9.17
Kindu,93,CD,1587079476,82,-2.95,25.95,72.9,2.95
Marrakesh,20,MA,1587079298,67,31.63,-8.01,60.8,4.7
Lorengau,99,PG,1587079476,77,-2.02,147.27,82.04,6.6
Chimbote,18,PE,1587079476,75,-9.09,-78.58,72.55,7.58
Faanui,15,PF,1587079476,66,-16.48,-151.75,83.26,9.71
Xichang,37,CN,1587079477,39,27.9,102.26,62.87,0.76
Kruisfontein,12,ZA,1587079477,64,-34,24.73,55.72,4
Shimokizukuri,20,JP,1587079477,52,40.81,140.39,51.01,2.24
Ōkawa,98,JP,1587079477,82,33.2,130.35,59,4.7
Rehoboth,35,NA,1587079477,18,-23.32,17.08,59.34,2.3
Abnūb,38,EG,1587079477,55,27.27,31.15,66.2,20.8
Broadstairs,0,GB,1587079477,81,51.36,1.44,51.01,8.05
Bückeburg,34,DE,1587079477,65,52.26,9.05,46.99,4.7
Tautira,8,PF,1587079477,66,-17.73,-149.15,87.8,10.29
Talnakh,34,RU,1587079478,73,69.49,88.4,21.2,15.66
Sühbaatar,5,MN,1587079478,37,50.23,106.21,46.83,0.22
Korla,100,CN,1587079478,43,41.76,86.15,58.39,9.95
Pochutla,20,MX,1587079478,62,15.74,-96.47,88,9.17
Provideniya,90,RU,1587079478,97,64.38,-173.3,32,13.42
Makkah al Mukarramah,0,SA,1587079478,43,21.43,39.83,68.16,1.77
Kavieng,100,PG,1587079478,92,-2.57,150.8,77.56,20.78
Kurchanskaya,33,RU,1587079478,76,45.22,37.59,48.2,20.13
Daru,95,PG,1587079478,82,-9.08,143.21,81.14,5.99
Olafsvik,99,IS,1587079479,94,64.89,-23.71,42.49,18.32
Bandarbeyla,13,SO,1587079479,75,9.49,50.81,81.57,6.06
Amursk,0,RU,1587079479,48,50.23,136.9,48.49,8.86
Huarmey,42,PE,1587079479,70,-10.07,-78.15,74.66,7.94
Flinders,3,AU,1587079479,55,-34.58,150.86,70,12.75
Lima,28,PE,1587079290,61,-12.04,-77.03,78.8,10.29
Alofi,100,NU,1587079479,73,-19.06,-169.92,80.1,14.07
Tarauacá,98,BR,1587079479,90,-8.16,-70.77,71.51,2.06
Bayir,0,TR,1587079479,87,37.27,28.22,51.8,4.7
Mosonmagyaróvár,100,HU,1587079480,66,47.87,17.27,54,1.12
Province of Brindisi,35,IT,1587079480,93,40.58,17.67,54,2.24
Lyubashivka,87,UA,1587079480,60,47.84,30.26,51.82,11.12
Port Hardy,20,CA,1587079480,58,50.7,-127.42,57.2,6.93
Macaé,90,BR,1587079460,94,-22.37,-41.79,75.2,4.7
Pitimbu,75,BR,1587079480,100,-7.47,-34.81,77,2.24
Bud,40,US,1587079467,48,39.45,-86.18,48.2,5.82
New Richmond,40,US,1587079480,24,45.12,-92.54,46.4,14.99
Santa Marta,21,CO,1587079339,73,11.24,-74.2,80.78,16.71
Koutsouras,2,GR,1587079481,62,35.03,25.95,57,18.99
Dunedin,100,NZ,1587079481,81,-45.87,170.5,48.99,11.36
Dondo,40,MZ,1587079481,88,-19.61,34.74,80.6,6.93
Pavlodar,3,KZ,1587079481,58,52.3,76.95,35.6,4.47
Pacifica,75,US,1587079481,67,37.61,-122.49,72,11.41
Liuhe,100,CN,1587079481,68,42.24,125.72,48.16,4.45
Tuatapere,98,NZ,1587079482,95,-46.13,167.68,46,7
East London,0,ZA,1587079446,67,-33.02,27.91,63.12,4.65
Mossamedes,0,AO,1587079469,61,-15.2,12.15,75.2,5.41
Udarnyy,100,RU,1587079482,87,54.34,42.86,38.93,12.33
Terme,20,TR,1587079482,93,41.21,36.97,35.6,3.36
Kaitangata,100,NZ,1587079482,82,-46.28,169.85,48.99,5.01
Maceió,75,BR,1587079342,94,-9.67,-35.74,75.2,10.29
Deep River,75,CA,1587079482,40,46.1,-77.5,37.4,9.17
Cap Malheureux,40,MU,1587079482,73,-19.98,57.61,77,11.41
La Libertad,24,EC,1587079483,78,-2.23,-80.9,80.6,11.41
Havøysund,100,NO,1587079325,69,71,24.66,35.6,24.16
Merrill,90,US,1587079483,40,45.18,-89.68,37.99,8.05
Mersing,77,MY,1587079483,94,2.43,103.84,75.2,4.7
Yenagoa,95,NG,1587079483,92,4.92,6.26,79.83,5.41
Dikson,0,RU,1587079483,86,73.51,80.55,-1.68,9.62
Del Rio,1,US,1587079483,44,29.36,-100.9,77,16.11
Gonder,19,ET,1587079483,16,12.6,37.47,63.73,5.12
Andreapol',97,RU,1587079484,87,56.65,32.27,33.44,11.65
Qaqortoq,100,GL,1587079484,93,60.72,-46.03,32,1.12
Takayama,40,JP,1587079484,70,36.13,137.25,59,3.36
Neryungri,96,RU,1587079484,86,56.67,124.65,21.63,9.6
Alice Springs,66,AU,1587079484,56,-23.7,133.88,68,5.82
Mataram,40,ID,1587079484,100,-8.58,116.12,77,4.94
Bada,0,RU,1587079484,39,51.39,109.87,44.11,2.68
Manaquiri,75,BR,1587079484,100,-3.32,-60.35,77,6.93
Santa Rosa,40,PH,1587079276,70,14.31,121.11,84.99,6.93
Nioro,33,GM,1587079485,35,13.35,-15.75,79.88,4.09
Andra,100,RU,1587079485,94,62.51,65.89,41.11,12.77
Tezu,100,IN,1587079485,68,27.92,96.17,69.85,2.51
Guangyuan,91,CN,1587079485,51,32.44,105.82,54,6.49
Boca do Acre,39,BR,1587079191,86,-8.75,-67.4,74.19,3.06
Padang,98,ID,1587079485,78,-0.95,100.35,77.77,2.51
Valparaíso,26,CL,1587079315,63,-33.04,-71.63,62.6,4.7
Broome,90,US,1587079486,86,42.25,-75.83,36,12.75
Grand-Santi,99,GF,1587079486,88,4.25,-54.38,75.31,3.51
Mayumba,100,GA,1587079486,81,-3.43,10.66,79.16,2.66
Tabas,5,IR,1587079486,55,33.6,56.92,64.4,4.7
Belaya Gora,100,RU,1587079486,92,68.53,146.42,1.08,8.84
Baker City,1,US,1587079486,19,44.77,-117.83,57.2,17.22
Kirksville,90,US,1587079486,90,40.19,-92.58,33.8,11.41
City of San Pedro,40,PH,1587079486,70,14.35,121.02,84.99,6.93
Arman',100,RU,1587079479,96,59.7,150.17,25.88,10.11
Aklavik,90,CA,1587079487,86,68.22,-135.01,33.8,17.22
Jefferson City,90,US,1587079385,33,38.58,-92.17,66.99,10.29
Boende,60,CD,1587079402,83,-0.22,20.87,73.96,1.16
Santa Ana,20,US,1587079429,56,33.75,-117.87,77,17.22
Rāzole,0,IN,1587079487,87,16.48,81.83,79.11,4.97
Mantenópolis,71,BR,1587079487,83,-18.86,-41.12,70.75,5.19
Mumford,15,GH,1587079487,85,5.26,-0.76,82.26,12.19
Ambatondrazaka,55,MG,1587079488,69,-17.83,48.42,64.09,7.05
Mahébourg,40,MU,1587079488,73,-20.41,57.7,77,11.41
Sangar,63,RU,1587079488,76,63.92,127.47,12.07,1.95
Boyolangu,69,ID,1587079488,81,-8.12,111.89,79.79,3.2
Coyhaique,90,CL,1587079434,93,-45.58,-72.07,59,5.82
Juneau,90,US,1587079191,93,58.3,-134.42,44.6,5.82
Gouré,35,NE,1587079488,13,13.98,10.27,78.12,8.9
Caconda,0,AO,1587079488,58,-13.73,15.07,59.68,1.36
Havelock,1,US,1587079488,25,34.88,-76.9,66.2,9.17
Nalobikha,2,RU,1587079488,84,53.2,84.6,38.39,3.56
Nekā,90,IR,1587079489,82,36.65,53.3,57.2,13.87
Villarrobledo,86,ES,1587079489,91,39.27,-2.6,53.01,5.99
Bubaque,49,GW,1587079489,69,11.28,-15.83,79.47,14.2
Arinos,69,BR,1587079489,77,-15.92,-46.11,70.18,3.33
Hambantota,16,LK,1587079489,82,6.12,81.12,79.86,3.85
Catalina,1,US,1587079489,4,32.51,-110.92,86,16.11
Margate,0,GB,1587079490,81,51.38,1.39,51.01,8.05
Vao,22,NC,1587079456,63,-22.67,167.48,74.79,9.84
Faxinal,0,BR,1587079490,50,-24,-51.32,52.84,0.67
Putyatino,85,RU,1587079490,79,54.16,41.12,38.43,13.82
Atambua,7,ID,1587079490,74,-9.11,124.89,79.07,1.3
Amahai,100,ID,1587079490,72,-3.33,128.92,83.23,4.07
Sirte,3,LY,1587079490,75,31.21,16.59,60.44,11.16
Finote Selam,44,ET,1587079490,23,10.7,37.27,67.59,1.66
Sioux Lookout,40,CA,1587079491,81,50.1,-91.92,32,12.75
Avera,1,US,1587079491,32,33.19,-82.53,72,3.36
Biak,12,ID,1587079491,74,-0.91,122.88,81.88,1.88
Tabou,66,CI,1587079491,88,4.42,-7.35,80.83,8.25
Cabedelo,75,BR,1587079446,100,-6.98,-34.83,77,2.24
Sakakah,38,SA,1587079491,20,29.97,40.21,68,12.75
Berdigestyakh,100,RU,1587079491,88,62.1,126.7,7.43,7.45
Impfondo,64,CG,1587079491,71,1.64,18.07,77.04,0.51
Maketu,98,NZ,1587079492,91,-37.77,176.45,70,9.44
Sangmélima,98,CM,1587079492,81,2.93,11.98,69.57,2.46
Muriti,80,TZ,1587079492,57,-1.98,32.92,73.45,11.79
São Raimundo Nonato,88,BR,1587079492,82,-9.02,-42.7,73.33,0.98
Shakawe,24,BW,1587079492,40,-18.37,21.85,70.65,2.89
Sharan,43,RU,1587079492,80,54.82,54,35.38,12.82
Cockburn Town,7,TC,1587079446,80,21.46,-71.14,79.09,13.91
Vitim,42,RU,1587079493,89,59.45,112.56,25.21,12.44
Faya,0,SA,1587079493,87,18.39,42.45,59,6.93
Cayenne,75,GF,1587079351,94,4.93,-52.33,77,6.93
Wad Medani,2,SD,1587079493,15,14.4,33.52,75.18,12.75
Boquete,20,PA,1587079493,66,8.78,-82.43,87.8,3.36
Outjo,0,NA,1587079493,34,-20.12,16.15,64.4,2.24
Wajima,31,JP,1587079493,66,37.4,136.9,48.2,9.17
Sovetskiy,100,RU,1587079494,92,61.36,63.58,42.8,9.26
Bhainsdehi,25,IN,1587079494,21,21.65,77.63,79.45,7.23
Qasigiannguit,81,GL,1587079494,86,68.82,-51.19,32,18.34
Batagay,100,RU,1587079494,87,67.63,134.63,2.64,8.81
Tianpeng,40,CN,1587079494,43,30.99,103.94,73.4,8.95
Chunskiy,61,RU,1587079495,70,56.08,99.63,38.97,2.35
Kavaratti,77,IN,1587079495,68,10.57,72.64,83.75,2.24
Rāzampeta,0,IN,1587079495,80,14.18,79.17,74.73,4.99
Obo,54,CF,1587079495,53,5.4,26.49,74.14,1.88
El Triunfo,75,EC,1587079495,70,-1.93,-79.97,87.01,5.82
Mabaruma,37,GY,1587079495,79,8.2,-59.78,75.78,6.42
Waddān,24,LY,1587079495,42,29.16,16.14,68.2,10.4
Burnie,51,AU,1587079496,82,-41.07,145.92,53.01,21
Maningrida,87,AU,1587079496,70,-12.07,134.27,81.48,6.44
Prainha,54,BR,1587079496,88,-1.8,-53.48,75.99,0.87
Pind Dadan Khan,97,PK,1587079496,34,32.59,73.05,73.78,4.65
Nanortalik,99,GL,1587079496,98,60.14,-45.24,31.73,9.86
Saint-François,82,FR,1587079496,54,46.42,3.91,57.2,2.24
Hudson Bay,89,CA,1587079496,81,52.85,-102.38,31.05,8.12
Abapó,27,BO,1587079496,35,-18.83,-63.47,66.97,3.33
San Miguelito,20,PA,1587079296,83,9.03,-79.5,87.8,6.93
Khandyga,41,RU,1587079497,84,62.67,135.6,4.33,4.54
Baykit,81,RU,1587079497,83,61.67,96.37,34.75,0.85
Golden,90,US,1587079497,85,39.76,-105.22,30.2,14.99
Chase,20,CA,1587079262,19,50.82,-119.69,66.2,2.24
Puteyets,100,RU,1587079497,95,65.17,57.09,31.6,6.02
Domoni,98,KM,1587079497,70,-12.26,44.53,83.48,6.87
Vardø,99,NO,1587079498,85,70.37,31.11,35.85,20.51
Pangai,75,TO,1587079498,83,-19.8,-174.35,78.8,5.82
Florida,1,US,1587079376,43,28.75,-82.5,71.6,11.41
Luanda,40,AO,1587079498,83,-8.84,13.23,82.4,12.75
Ternovskaya,41,RU,1587079498,64,45.85,40.41,45,24.7
Vila Velha,80,BR,1587079382,88,-20.33,-40.29,77,6.93
Christchurch,90,NZ,1587079202,93,-43.53,172.63,57,3.36
Soyo,100,AO,1587079496,87,-6.13,12.37,81.12,4.72
Sibolga,93,ID,1587079499,78,1.74,98.78,77.7,2.57
Vrangel',68,RU,1587079499,73,42.73,133.08,43.84,6.67
Cao Bang,96,VN,1587079499,81,22.67,106.25,72.41,4.52
Saint George,20,US,1587079384,21,37.1,-113.58,73,16.11
Wapi Pathum,97,TH,1587079499,88,15.85,103.38,77,4.09
Ajdabiya,34,LY,1587079500,57,30.76,20.23,62.08,9.66
Midland,1,US,1587079500,30,32,-102.08,81,21.92
Luza,100,RU,1587079500,90,60.63,47.25,32.95,10.54
Kendari,44,ID,1587079488,79,-3.94,122.5,82.18,5.06
Horconcitos,9,PA,1587079500,64,8.47,-81.8,69.4,8.95
La Asuncion,98,VE,1587079500,69,11.03,-63.86,82.4,18.34
Eirunepé,48,BR,1587079501,89,-6.66,-69.87,73.74,3.44
Pervomayskiy,74,RU,1587079501,73,53.25,40.29,38.28,15.23
Killybegs,51,IE,1587079501,84,54.63,-8.45,48.99,5.99
Kawalu,46,ID,1587079501,76,-7.38,108.21,76.62,1.95
Constitución,33,CL,1587079501,82,-35.33,-72.42,56.01,5.53
Hukuntsi,0,BW,1587079443,20,-24,21.75,62.49,7.99
Lambaréné,100,GA,1587079502,95,-0.7,10.24,75.88,2.08
Sisimiut,99,GL,1587079338,91,66.94,-53.67,26.8,11.79
Pemangkat,95,ID,1587079502,88,1.17,108.97,78.78,4.45
Toledo,75,ES,1587079502,93,39.83,-4,57.99,8.05
Palmaner,15,IN,1587079502,80,13.2,78.75,69.84,2.82
Cam Ranh,40,VN,1587079502,94,11.92,109.16,77,3.36
Charlottesville,1,US,1587079404,16,38.03,-78.48,57.2,6.93
Edd,38,ER,1587079503,63,13.93,41.69,80.69,4.18
Māngrol,39,IN,1587079503,64,21.12,70.12,78.71,10.67
Kudahuvadhoo,23,MV,1587079503,64,2.67,72.89,84.97,3.11
Xique-Xique,8,BR,1587079503,72,-10.82,-42.73,76.82,6.33
Tsumeb,43,NA,1587079503,34,-19.23,17.72,68.14,3.78
Maan,69,PH,1587079503,65,5.93,124.74,84.65,3.58
Port Lincoln,24,AU,1587079504,60,-34.73,135.87,62.58,9.75
Samarai,79,PG,1587079385,71,-10.62,150.67,84.67,6.17
North Bend,1,US,1587079504,27,43.41,-124.22,73.4,10.29
Gornopravdinsk,100,RU,1587079431,88,60.05,69.9,40.6,8.9
Kamenka,78,RU,1587079460,88,51.32,42.77,44.01,5.99
Kubanskiy,45,RU,1587079504,64,45.93,40.58,45,25.14
Welahan,40,ID,1587079504,88,-6.8,110.72,78.8,2.24
Port Macquarie,74,AU,1587079505,56,-31.43,152.92,80.01,6.42
Dingle,39,PH,1587079505,72,11,122.67,83.97,10.09
Shangzhi,100,CN,1587079442,42,45.22,127.97,54.27,3.02
Saryg-Sep,74,RU,1587079505,59,51.5,95.6,40.37,2.04
Kismayo,99,SO,1587079505,80,-0.36,42.55,82.72,6.8
Bambanglipuro,88,ID,1587079505,82,-7.95,110.28,80.4,6.55
Mbanza-Ngungu,100,CD,1587079505,82,-5.25,14.87,70.47,5.06
Deer Lake,90,CA,1587079505,86,49.17,-57.43,26.6,16.11
Khani,90,GE,1587079506,93,41.96,42.96,46.4,3.36
Cabo San Lucas,20,MX,1587079413,41,22.89,-109.91,84,10.29
Makat,50,KZ,1587079506,54,47.65,53.35,46.02,6.96
Grindavik,90,IS,1587079506,100,63.84,-22.43,44.6,13.87
Kuldīga,53,LV,1587079506,80,56.97,21.96,41,5.82
Oktyabr'skiy,37,RU,1587079506,81,54.48,53.47,35.11,11.18
Staryy Nadym,99,RU,1587079506,98,65.61,72.68,29.32,15.79
Kahului,40,US,1587079441,48,20.89,-156.47,84.2,21.92
Lagos,20,NG,1587079316,89,6.58,3.75,84.2,6.93
Bor,90,RU,1587079507,93,56.36,44.07,39,4.47
Acapulco de Juárez,5,MX,1587079254,74,16.86,-99.89,82.4,10.29
Svetlaya,0,RU,1587079507,55,46.54,138.33,46.31,3.65
Erenhot,0,CN,1587079507,37,43.65,111.98,44.98,5.06
Ofakim,18,IL,1587079507,76,31.31,34.62,61,6.4
Banjar,80,ID,1587079508,75,-8.19,114.97,82.71,3.02
Narrabri,63,AU,1587079508,43,-30.32,149.78,73.4,12.75
Uíge,99,AO,1587079508,76,-7.61,15.06,68.36,2.17
Rio Grande,7,BR,1587079467,87,-32.03,-52.1,63,1.01
Aldan,92,RU,1587079508,85,58.6,125.39,10.92,5.41
Jalu,82,LY,1587079508,38,29.03,21.55,66.31,7.96
Razdolinsk,93,RU,1587079508,81,58.42,94.67,34.27,1.66
Arawa,100,PG,1587079508,85,-6.21,155.54,79.16,6.8
Tambura,32,SS,1587079509,50,5.6,27.47,75,1.36
Gachsaran,19,IR,1587079509,47,30.36,50.8,55.4,2.82
Ndola,80,ZM,1587079509,65,-12.96,28.64,62.71,4.36
Mindelo,31,CV,1587079509,75,16.89,-24.98,69.3,13
Taft,20,IR,1587079509,54,31.75,54.21,59,6.93
Nador,40,MA,1587079509,88,35.17,-2.93,62.6,2.15
Vila Franca do Campo,20,PT,1587079509,87,37.72,-25.43,55.4,3.36
Kununurra,97,AU,1587079510,88,-15.77,128.73,77,2.48
Copperas Cove,1,US,1587079510,43,31.12,-97.9,75.2,17.22
São Filipe,74,CV,1587079510,74,14.9,-24.5,72.16,14.07
Płock,79,PL,1587079456,65,52.55,19.71,41,2.24
Kőszeg,100,HU,1587079510,57,47.39,16.54,55,3.69
Fort Nelson,75,CA,1587079511,30,58.81,-122.7,59,16.11
Tayoltita,97,MX,1587079511,10,24.08,-105.93,83.97,7.63
Caravelas,30,BR,1587079511,86,-17.71,-39.25,78.21,6.73
Ranau,20,MY,1587079511,83,5.95,116.66,80.01,4.7
Trelew,82,AR,1587079455,34,-43.25,-65.31,76.77,10.56
Noyabrsk,99,RU,1587079511,93,63.2,75.45,32.77,11.95
Solnechnyy,0,RU,1587079511,39,50.72,136.63,50.54,3.8
Kortkeros,90,RU,1587079511,86,61.81,51.58,33.8,8.95
Mezen',99,RU,1587079512,95,65.85,44.24,31.95,12.84
Safonovo,99,RU,1587079512,81,55.15,33.22,34.21,12.33
Krasnyy Chikoy,0,RU,1587079512,39,50.36,108.75,45.16,1.34
Marawi,55,PH,1587079512,58,8,124.29,77.61,1.5
Mundi,44,IN,1587079512,23,22.07,76.5,84.29,6.53
Ponta Delgada,20,PT,1587079512,87,37.73,-25.67,55.4,3.36
Sitka,90,US,1587079420,93,57.05,-135.33,46.4,6.93
Teya,58,RU,1587079512,83,60.38,92.63,33.91,1.01
Half Moon Bay,90,US,1587079513,87,37.46,-122.43,71.6,4.7
Jackson,1,US,1587079513,16,42.42,-122.83,73.4,17.22
Orsha,75,BY,1587079513,79,54.52,30.41,35.6,11.18
Biabou,75,VC,1587079513,78,13.2,-61.13,82.4,5.82
Chara,74,RU,1587079513,77,56.91,118.26,27.28,6.46
Cancún,40,MX,1587079444,70,21.17,-86.85,84.2,14.99
Palmer,75,US,1587079513,26,42.16,-72.33,43,25.28
Vezirköprü,3,TR,1587079513,92,41.14,35.45,28.4,3.36
Kovernino,100,RU,1587079514,91,57.13,43.81,36.5,1.97
Natal,20,BR,1587079514,88,-5.79,-35.21,78.8,6.93
Andros,0,GR,1587079514,66,37.83,24.93,55.99,18.34
Gilgit,100,PK,1587079514,26,35.92,74.31,52.72,2.53
Atar,95,MR,1587079448,17,20.52,-13.05,78.48,3.09
Rahden,20,DE,1587079514,65,52.43,8.62,46.99,4.7
Beidao,75,CN,1587079514,23,34.57,105.89,54.72,3.65
Nkhata Bay,9,MW,1587079514,66,-11.61,34.29,74.73,2.51
Curup,100,ID,1587079514,79,-3.47,102.53,68.67,2.24
Kungurtug,100,RU,1587079515,55,50.6,97.52,37.29,3.51
Morón,0,AR,1587079515,77,-34.65,-58.62,61,3.36
San Antonio,90,US,1587079515,47,29.42,-98.49,78.01,12.75
Vaasa,31,FI,1587079515,55,63.1,21.62,37.4,14.99
Zhangye,100,CN,1587079515,20,38.93,100.45,52,3.31
Tubualá,20,PA,1587079515,55,9.52,-79.03,87.8,4.7
Harper,56,LR,1587079515,86,4.38,-7.72,81.41,9.08
Magadan,100,RU,1587079515,96,59.57,150.8,24.94,7.87
Esil,89,KZ,1587079516,52,51.96,66.4,45.28,15.84
Balkanabat,27,TM,1587079516,47,39.51,54.37,60.49,3.67
Severodvinsk,90,RU,1587079516,97,64.56,39.83,33.8,4.47
Anjozorobe,40,MG,1587079516,87,-18.4,47.87,59,8.05
Hofn,39,IS,1587079516,69,64.25,-15.21,40.71,12.82
Emerald,0,AU,1587079516,69,-23.53,148.17,77,3.36
Sainte-Martine,20,CA,1587079516,32,45.25,-73.8,41,14.99
Moerai,100,PF,1587079516,61,-22.43,-151.33,78.55,8.59
Shenjiamen,11,CN,1587079517,88,29.96,122.3,61.65,15.32
Sondrio,2,IT,1587079517,66,46.17,9.87,53.01,3.36
Waingapu,48,ID,1587079517,76,-9.66,120.26,80.94,3.56
Khovd,100,MN,1587079488,48,48.01,91.64,40.19,3.36
Tual,83,ID,1587079517,77,-5.67,132.75,82.54,7.7
Pisco,11,PE,1587079298,30,-13.7,-76.22,75.99,19.46
Kouango,38,CF,1587079517,49,4.99,19.96,76.44,1.43
Gillingham,0,GB,1587079518,81,51.39,0.55,53.6,8.05
High Level,75,CA,1587079276,37,58.52,-117.14,55.4,9.17
Ondarroa,72,ES,1587079518,82,43.32,-2.42,60.01,2.24
